{
  "locations": [
    {
      "id": "2",
      "name": "Warm Beds Housing Support",
      "city": "Juneau",
      "state": "AK",
      "photo": "https://angular.io/assets/images/tutorials/faa/i-do-nothing-but-love-lAyXdl1-Wmc-unsplash.jpg",
      "availableUnits": 1,
      "wifi": false,
      "laundry": false
    },
    {
      "id": "3",
      "name": "Homesteady Housing",
      "city": "Chicago",
      "state": "IL",
      "photo": "https://angular.io/assets/images/tutorials/faa/ian-macdonald-W8z6aiwfi1E-unsplash.jpg",
      "availableUnits": 1,
      "wifi": true,
      "laundry": false
    },
    {
      "id": "4",
      "name": "Happy Homes Group",
      "city": "Gary",
      "state": "IN",
      "photo": "https://angular.io/assets/images/tutorials/faa/krzysztof-hepner-978RAXoXnH4-unsplash.jpg",
      "availableUnits": 1,
      "wifi": true,
      "laundry": false
    },
    {
      "id": "5",
      "name": "Hopeful Apartment Group",
      "city": "Oakland",
      "state": "CA",
      "photo": "https://angular.io/assets/images/tutorials/faa/r-architecture-JvQ0Q5IkeMM-unsplash.jpg",
      "availableUnits": 2,
      "wifi": true,
      "laundry": true
    },
    {
      "id": "6",
      "name": "Seriously Safe Towns",
      "city": "Oakland",
      "state": "CA",
      "photo": "https://angular.io/assets/images/tutorials/faa/phil-hearing-IYfp2Ixe9nM-unsplash.jpg",
      "availableUnits": 5,
      "wifi": true,
      "laundry": true
    },
    {
      "id": "7",
      "name": "Hopeful Housing Solutions",
      "city": "Oakland",
      "state": "CA",
      "photo": "https://angular.io/assets/images/tutorials/faa/r-architecture-GGupkreKwxA-unsplash.jpg",
      "availableUnits": 2,
      "wifi": true,
      "laundry": true
    },
    {
      "id": "8",
      "name": "Seriously Safe Towns",
      "city": "Oakland",
      "state": "CA",
      "photo": "https://angular.io/assets/images/tutorials/faa/saru-robert-9rP3mxf8qWI-unsplash.jpg",
      "availableUnits": 10,
      "wifi": false,
      "laundry": false
    },
    {
      "id": "9",
      "name": "Capital Safe Towns",
      "city": "Portland",
      "state": "OR",
      "photo": "https://angular.io/assets/images/tutorials/faa/webaliser-_TPTXZd9mOo-unsplash.jpg",
      "availableUnits": 6,
      "wifi": true,
      "laundry": true
    }
  ],
  "students": [
    {
      "id": 1,
      "name": "Raju",
      "email": "raju@gmail.com",
      "cellNo": "3456789",
      "location": {
        "id": "9",
        "name": "Capital Safe Towns",
        "city": "Portland",
        "state": "OR",
        "photo": "https://angular.io/assets/images/tutorials/faa/webaliser-_TPTXZd9mOo-unsplash.jpg",
        "availableUnits": 6,
        "wifi": true,
        "laundry": true
      }
    },
    {
      "id": 2,
      "name": "Shah Alam",
      "email": "shahalam@example.com",
      "cellNo": "01712345678",
      "location": {
        "id": "7",
        "name": "Hopeful Housing Solutions",
        "city": "Oakland",
        "state": "CA",
        "photo": "https://angular.io/assets/images/tutorials/faa/r-architecture-GGupkreKwxA-unsplash.jpg",
        "availableUnits": 2,
        "wifi": true,
        "laundry": true
      }
    },
    {
      "id": 3,
      "name": "Fatima Akter",
      "email": "fatima@example.com",
      "cellNo": "01898765432",
      "location": {
        "id": "9",
        "name": "Capital Safe Towns",
        "city": "Portland",
        "state": "OR",
        "photo": "https://angular.io/assets/images/tutorials/faa/webaliser-_TPTXZd9mOo-unsplash.jpg",
        "availableUnits": 6,
        "wifi": true,
        "laundry": true
      }
    },
    {
      "id": 4,
      "name": "Karim Uddin",
      "email": "karim@example.com",
      "cellNo": "01911223344",
      "location": {
        "id": "9",
        "name": "Capital Safe Towns",
        "city": "Portland",
        "state": "OR",
        "photo": "https://angular.io/assets/images/tutorials/faa/webaliser-_TPTXZd9mOo-unsplash.jpg",
        "availableUnits": 6,
        "wifi": true,
        "laundry": true
      }
    },
    {
      "id": 5,
      "name": "Ayesha Begum",
      "email": "ayesha@example.com",
      "cellNo": "01655667788",
      "location": {
        "id": "9",
        "name": "Capital Safe Towns",
        "city": "Portland",
        "state": "OR",
        "photo": "https://angular.io/assets/images/tutorials/faa/webaliser-_TPTXZd9mOo-unsplash.jpg",
        "availableUnits": 6,
        "wifi": true,
        "laundry": true
      }
    },
    {
      "id": 6,
      "name": "Rahim Khan",
      "email": "rahim@example.com",
      "cellNo": "01567891234",
      "location": {
        "id": "9",
        "name": "Capital Safe Towns",
        "city": "Portland",
        "state": "OR",
        "photo": "https://angular.io/assets/images/tutorials/faa/webaliser-_TPTXZd9mOo-unsplash.jpg",
        "availableUnits": 6,
        "wifi": true,
        "laundry": true
      }
    }
  ]
}